[
	{
		"id":1,
		"name":"REGNIER Emmanuel",
		"lat":"48.698326",
		"lng":"6.167306",
		"state":"",
		"address":"58 bis boulevard Albert Premier",
		"city":"Nancy",
		"postal":54000,
		"phone":"03 83 36 44 00",
		"address2":"dr.regnier_nancy@yahoo.fr"
		"web":"dr.regnier_nancy@yahoo.fr",
		"hours1":"Mon-Sun 11am-10pm",
		"hours2":"",
		"hours3":""
	},
	{
		"id":2,
		"name":"CHENAL Hervé",
		"lat":"48.703466",
		"lng":"6.139099",
		"state":"",
		"address":"9 rue Blaise Pascal",
		"city":"Maxeville",
		"postal":54320,
		"phone":"03 83 35 15 06",
		"address2":"secretariat.chenal@orange.fr"
		"web":"dr.regnier_nancy@yahoo.fr",
		"hours1":"Mon-Sun 11am-10pm",
		"hours2":"",
		"hours3":""
	},
	{
		"id":3,
		"name":"TURELL-COLOMBO Alexandra",
		"lat":"49.632638",
		"lng":"6.176176",
		"state":"Hopital Kirchberg",
		"address":"9 rue Edward Steichen",
		"city":"Luxembourg",
		"postal":L-2540,
		"phone":"00352 2468 4135",
		"address2":"cabinet.dr.turell@hotmail.fr"
		"web":"dr.regnier_nancy@yahoo.fr",
		"hours1":"Mon-Sun 11am-10pm",
		"hours2":"",
		"hours3":""
	},
	{
		"id":4,
		"name":"GIOVANNINI Uberto",
		"lat":"43.601056",
		"lng":"3.914847",
		"state":"Le Fahrenheit",
		"address":"120, Avenue Nina Simone",
		"city":"Montpellier",
		"postal":34000,
		"phone":"04 67 48 12 70",
		"address2":"chirurgieesthetiquemillenaire@yahoo.com"
		"web":"dr.regnier_nancy@yahoo.fr",
		"hours1":"Mon-Sun 11am-10pm",
		"hours2":"",
		"hours3":""
	},
	{
		"id":5,
		"name":"PADEY Hervé",
		"lat":"44.",
		"lng":"-93.",
		"state":"",
		"address":"81 rue d'Antibes",
		"city":"Villa Florissant",
		"postal":06400,
		"phone":"04 92 98 64 60",
		"address2":"padeyhsp@club-internet.fr ; padeyhsp@gmail.com"
		"web":"dr.regnier_nancy@yahoo.fr",
		"hours1":"Mon-Sun 11am-10pm",
		"hours2":"",
		"hours3":""
	},
	{
		"id":6,
		"name":"MERCIER-MARTY Catherine",
		"lat":"44.",
		"lng":"-93.",
		"state":"",
		"address":"12 rue Henri Barbusse",
		"city":"Fresnes",
		"postal":94260,
		"phone":"01 46 68 12 00",
		"address2":"dr.mercier.marty@gmail.com"
		"web":"dr.regnier_nancy@yahoo.fr",
		"hours1":"Mon-Sun 11am-10pm",
		"hours2":"",
		"hours3":""
	},
	{
		"id":7,
		"name":"CORNETTE DE SAINT CYR Bernard",
		"lat":"44.",
		"lng":"-93.",
		"state":"",
		"address":"15 rue Spontini",
		"city":"Paris",
		"postal":75116,
		"phone":"01 47 04 25 02",
		"address2":"bdesaintcyr@outlook.com"
		"web":"dr.regnier_nancy@yahoo.fr",
		"hours1":"Mon-Sun 11am-10pm",
		"hours2":"",
		"hours3":""
	},
	{
		"id":8,
		"name":"CONVERSET VIETHEL Sophie",
		"lat":"44.",
		"lng":"-93.",
		"state":"Palais de Flore",
		"address":"10 boulevard Jules Favre",
		"city":"Lyon",
		"postal":69006,
		"phone":"04 78 41 88 85",
		"address2":"drconverset@cabinetfgc.fr"
		"web":"dr.regnier_nancy@yahoo.fr",
		"hours1":"Mon-Sun 11am-10pm",
		"hours2":"",
		"hours3":""
	},
	{
		"id":9,
		"name":"LAFARGE Béatrice",
		"lat":"44.",
		"lng":"-93.",
		"state":"Clinique Alphand",
		"address":"12 Avenue Alphand",
		"city":"Paris",
		"postal":75016,
		"phone":"01 45 00 11 25",
		"address2":"beatricelafarge@wanadoo.fr"
		"web":"dr.regnier_nancy@yahoo.fr",
		"hours1":"Mon-Sun 11am-10pm",
		"hours2":"",
		"hours3":""
	},
	{
		"id":10,
		"name":"PENETRAT-REICHERT Sophie",
		"lat":"44.",
		"lng":"-93.",
		"state":"",
		"address":"4 rue du Ruisseau",
		"city":"Woippy",
		"postal":57140,
		"phone":"03 87 32 17 90",
		"address2":""
		"web":"dr.regnier_nancy@yahoo.fr",
		"hours1":"Mon-Sun 11am-10pm",
		"hours2":"",
		"hours3":""
	},
	{
		"id":11,
		"name":"POIGNONEC Sylvie",
		"lat":"44.",
		"lng":"-93.",
		"state":"",
		"address":"28 rue de Ponthieu",
		"city":"Paris",
		"postal":75008,
		"phone":"01 45 63 13 20",
		"address2":"sylvie@poignonec.com"
		"web":"dr.regnier_nancy@yahoo.fr",
		"hours1":"Mon-Sun 11am-10pm",
		"hours2":"",
		"hours3":""
	},
	{
		"id":12,
		"name":"EL HADDAD Robert",
		"lat":"44.",
		"lng":"-93.",
		"state":"",
		"address":"18 rue Théodore de Banville",
		"city":"Paris",
		"postal":75017,
		"phone":"01 47 66 88 47",
		"address2":"haddad75@wanadoo.fr ; rhaddad75@orange.fr"
		"web":"dr.regnier_nancy@yahoo.fr",
		"hours1":"Mon-Sun 11am-10pm",
		"hours2":"",
		"hours3":""
	},
	{
		"id":13,
		"name":"WINTER Cécile",
		"lat":"44.",
		"lng":"-93.",
		"state":"Clinique Esthétique Saint-Georges",
		"address":"2 avenue de Rimiez",
		"city":"Nice",
		"postal":06100,
		"phone":"04 92 47 24 15",
		"address2":"info@docteurcecilewinter.com"
		"web":"dr.regnier_nancy@yahoo.fr",
		"hours1":"Mon-Sun 11am-10pm",
		"hours2":"",
		"hours3":""
	},
	{
		"id":14,
		"name":"KESTEMONT Philippe",
		"lat":"44.",
		"lng":"-93.",
		"state":"Clinique Esthétique Saint-Georges",
		"address":"2 avenue de Rimiez",
		"city":"Nice",
		"postal":06100,
		"phone":"04 93 55 30 52",
		"address2":"contact@drkestemont.com"
		"web":"dr.regnier_nancy@yahoo.fr",
		"hours1":"Mon-Sun 11am-10pm",
		"hours2":"",
		"hours3":""
	},
	{
		"id":15,
		"name":"DI CESARE SCHWARTZMANN Marie-Pierre",
		"lat":"44.",
		"lng":"-93.",
		"state":"",
		"address":"24 rue de la Vieille Porte",
		"city":"Thionville",
		"postal":57100,
		"phone":"03 82 54 17 41",
		"address2":"mp-dicesare-schwartzmann@orange.fr"
		"web":"dr.regnier_nancy@yahoo.fr",
		"hours1":"Mon-Sun 11am-10pm",
		"hours2":"",
		"hours3":""
	},
	{
		"id":16,
		"name":"Test",
		"lat":"44.",
		"lng":"-93.",
		"state":"Testing",
		"address":"23 allée Charles de Fitte",
		"city":"Toulouse",
		"postal":31300,
		"phone":"05 61 42 81 32",
		"address2":"v.gassia@club-internet.fr"
		"web":"dr.regnier_nancy@yahoo.fr",
		"hours1":"Mon-Sun 11am-10pm",
		"hours2":"",
		"hours3":""
	},
	{
		"id":17,
		"name":"MALET Thierry",
		"lat":"44.",
		"lng":"-93.",
		"state":"Centre Monticelli",
		"address":"433b rue Paradis",
		"city":"Marseille",
		"postal":13008,
		"phone":"04 91 16 22 27",
		"address2":"contact@dr-malet.fr"
		"web":"dr.regnier_nancy@yahoo.fr",
		"hours1":"Mon-Sun 11am-10pm",
		"hours2":"",
		"hours3":""
	},
	{
		"id":18,
		"name":"CATONI Isabelle",
		"lat":"44.",
		"lng":"-93.",
		"state":"",
		"address":"109 bis Avenue Charles de Gaulle",
		"city":"Neuilly sur Seine",
		"postal":92200,
		"phone":"01 46 40 66 60",
		"address2":"isabelle.catoni@gmail.com"
		"web":"dr.regnier_nancy@yahoo.fr",
		"hours1":"Mon-Sun 11am-10pm",
		"hours2":"",
		"hours3":""
	},
	{
		"id":19,
		"name":"BASPEYRAS Martine",
		"lat":"44.",
		"lng":"-93.",
		"state":"",
		"address":"45 avenue Bel-Air",
		"city":"Bordeaux",
		"postal":33200,
		"phone":"05 56 42 31 31",
		"address2":"martine-baspeyras@wanadoo.fr"
		"web":"dr.regnier_nancy@yahoo.fr",
		"hours1":"Mon-Sun 11am-10pm",
		"hours2":"",
		"hours3":""
	},
	{
		"id":20,
		"name":"DAHAN Serge",
		"lat":"44.947464",
		"lng":"-93.320826",
		"state":"Clinique Saint Jean Languedoc",
		"address":"20 route de Revel",
		"city":"Toulouse Cedex 4",
		"postal":31077,
		"phone":"05 61 54 91 01",
		"address2":"serge.dahan@docteur-dahan.com"
		"web":"dr.regnier_nancy@yahoo.fr",
		"hours1":"Mon-Sun 11am-10pm",
		"hours2":"",
		"hours3":""
	},
	{
		"id":21,
		"name":"GOMEL-TOLEDANO Marie",
		"lat":"44.947464",
		"lng":"-93.320826",
		"state":"",
		"address":"7 rue Chateaubriand",
		"city":"Paris",
		"postal":75008,
		"phone":"01 42 89 09 26",
		"address2":"mariegomt@gmail.com"
		"web":"dr.regnier_nancy@yahoo.fr",
		"hours1":"Mon-Sun 11am-10pm",
		"hours2":"",
		"hours3":""
	},
	{
		"id":22,
		"name":"PLOT Eric",
		"lat":"44.947464",
		"lng":"-93.320826",
		"state":"",
		"address":"23 rue de Saint Petersbourg",
		"city":"Paris",
		"postal":75008,
		"phone":"01 40 82 62 92",
		"address2":"contact@ericplot.com"
		"web":"dr.regnier_nancy@yahoo.fr",
		"hours1":"Mon-Sun 11am-10pm",
		"hours2":"",
		"hours3":""
	},
	{
		"id":23,
		"name":"DJOUDI Jamal",
		"lat":"44.947464",
		"lng":"-93.320826",
		"state":"",
		"address":"1 allée Ravoisier",
		"city":"Voumeuil sous Biard",
		"postal":86580,
		"phone":"06 37 08 79 38",
		"address2":"jamaldjoudi@hotmail.com"
		"web":"dr.regnier_nancy@yahoo.fr",
		"hours1":"Mon-Sun 11am-10pm",
		"hours2":"",
		"hours3":""
	},
	{
		"id":24,
		"name":"LO-JEANPIERRE Béatrice",
		"lat":"44.947464",
		"lng":"-93.320826",
		"state":"",
		"address":"23 rue des Pretres",
		"city":"Remiremont",
		"postal":88200,
		"phone":"03 29 62 04 10",
		"address2":"beatrice.lo@orange.fr"
		"web":"dr.regnier_nancy@yahoo.fr",
		"hours1":"Mon-Sun 11am-10pm",
		"hours2":"",
		"hours3":""
	},
	{
		"id":25,
		"name":"DRAY Maurice",
		"lat":"44.947464",
		"lng":"-93.320826",
		"state":"",
		"address":"3 avenue Montaigne",
		"city":"Paris",
		"postal":75008,
		"phone":"01 44 17 80 20",
		"address2":""
		"web":"dr.regnier_nancy@yahoo.fr",
		"hours1":"Mon-Sun 11am-10pm",
		"hours2":"",
		"hours3":""
	},
	{
		"id":26,
		"name":"VICOMTE Catherine",
		"lat":"44.947464",
		"lng":"-93.320826",
		"state":"SELARL DE VICOMTE",
		"address":"1 rue Raymond Devos",
		"city":"Conches en Ouche",
		"postal":27190,
		"phone":"02 32 31 48 81",
		"address2":"c.vicomte@orange.fr"
		"web":"dr.regnier_nancy@yahoo.fr",
		"hours1":"Mon-Sun 11am-10pm",
		"hours2":"",
		"hours3":""
	},
	{
		"id":27,
		"name":"FAYS Ségolène",
		"lat":"44.947464",
		"lng":"-93.320826",
		"state":"",
		"address":"7 rue des Glacis",
		"city":"Nancy",
		"postal":54000,
		"phone":"03 83 40 30 55",
		"address2":""
		"web":"dr.regnier_nancy@yahoo.fr",
		"hours1":"Mon-Sun 11am-10pm",
		"hours2":"",
		"hours3":""
	},
	{
		"id":28,
		"name":"HIMY Serge",
		"lat":"44.947464",
		"lng":"-93.320826",
		"state":"",
		"address":"3 allée de la Robertsau",
		"city":"Strasbourg",
		"postal":67000,
		"phone":"03 88 16 00 89",
		"address2":"serge.himy@wanadoo.fr"
		"web":"dr.regnier_nancy@yahoo.fr",
		"hours1":"Mon-Sun 11am-10pm",
		"hours2":"",
		"hours3":""
	},
	{
		"id":29,
		"name":"BOLLECKER Vanessa",
		"lat":"44.947464",
		"lng":"-93.320826",
		"state":"",
		"address":"3 allée de la Robertsau",
		"city":"Strasbourg",
		"postal":67000,
		"phone":"03 88 16 00 89",
		"address2":"vbollecker@wanadoo.fr"
		"web":"dr.regnier_nancy@yahoo.fr",
		"hours1":"Mon-Sun 11am-10pm",
		"hours2":"",
		"hours3":""
	},
	{
		"id":30,
		"name":"ANTUNES Agnès",
		"lat":"44.947464",
		"lng":"-93.320826",
		"state":"",
		"address":"13 avenue Foch",
		"city":"Metz",
		"postal":57000,
		"phone":"03 87 76 30 59",
		"address2":""
		"web":"dr.regnier_nancy@yahoo.fr",
		"hours1":"Mon-Sun 11am-10pm",
		"hours2":"",
		"hours3":""
	},
	{
		"id":31,
		"name":"BOULANGER Annie",
		"lat":"44.947464",
		"lng":"-93.320826",
		"state":"",
		"address":"10 rue Joffre",
		"city":"Thionville",
		"postal":57100,
		"phone":"03 82 82 71 24",
		"address2":""
		"web":"dr.regnier_nancy@yahoo.fr",
		"hours1":"Mon-Sun 11am-10pm",
		"hours2":"",
		"hours3":""
	},
	{
		"id":32,
		"name":"BESNIER Fabienne",
		"lat":"44.947464",
		"lng":"-93.320826",
		"state":"",
		"address":"14 rue Maurice Barrès",
		"city":"Metz",
		"postal":57000,
		"phone":"03 87 75 41 42",
		"address2":""
		"web":"dr.regnier_nancy@yahoo.fr",
		"hours1":"Mon-Sun 11am-10pm",
		"hours2":"",
		"hours3":""
	},
	{
		"id":33,
		"name":"VOINCHET Véronique",
		"lat":"44.947464",
		"lng":"-93.320826",
		"state":"Vendôme Rotonde Bâtiment A",
		"address":"90 avenue Napoléon Bonaparte",
		"city":"Aix-en-Provence",
		"postal":13100,
		"phone":"04 42 27 49 56",
		"address2":"secretariatdrvoinchet@gmail.com ; contact@voinchet-esthetique.com"
		"web":"dr.regnier_nancy@yahoo.fr",
		"hours1":"Mon-Sun 11am-10pm",
		"hours2":"",
		"hours3":""
	},
	{
		"id":34,
		"name":"SEVENO Françoise",
		"lat":"44.947464",
		"lng":"-93.320826",
		"state":"Laser Esthétique",
		"address":"64 avenue Wilson",
		"city":"Auray",
		"postal":56400,
		"phone":"06 15 42 51 61",
		"address2":"sevenofrancoise@orange.fr"
		"web":"dr.regnier_nancy@yahoo.fr",
		"hours1":"Mon-Sun 11am-10pm",
		"hours2":"",
		"hours3":""
	},
	{
		"id":35,
		"name":"DEQUIDT Isabelle",
		"lat":"44.947464",
		"lng":"-93.320826",
		"state":"",
		"address":"2 rue Takit",
		"city":"Angers",
		"postal":49000,
		"phone":"02 41 86 51 24",
		"address2":"imassardier@wanadoo.fr"
		"web":"dr.regnier_nancy@yahoo.fr",
		"hours1":"Mon-Sun 11am-10pm",
		"hours2":"",
		"hours3":""
	},
	{
		"id":36,
		"name":"ARCHAMBAULT Françoise",
		"lat":"44.947464",
		"lng":"-93.320826",
		"state":"",
		"address":"38 rue de Toutes aides",
		"city":"Saint-Nazaire",
		"postal":44600,
		"phone":"02 40 61 07 41",
		"address2":"archambault@icloud.com"
		"web":"dr.regnier_nancy@yahoo.fr",
		"hours1":"Mon-Sun 11am-10pm",
		"hours2":"",
		"hours3":""
	}
]
